{
"type": "FeatureCollection",
"name": "coffee-locations",
"crs": { "type": "name", "properties": { "name": "urn:ogc:def:crs:EPSG::4267" } },
"features": [
{ "type": "Feature", "properties": { "ID": 1, "NAME": "Basic Cafe", "LATITUDE": 48.4253, "LONGITUDE": -123.357, "REVENUE": 83129, "CUSTOMERS": 636, "DONUTS_SOLD": 349, "CHAIN": false, "CHAIN_NAME": "OTHER", "DISTANCE(M)": 938.3, "DRIVE_TIME(MINS)": 3, "RATING": 1, "PIN": "/coffeepin.svg" }, "geometry": { "type": "Point", "coordinates": [ -123.357, 48.4253 ] } },
{ "type": "Feature", "properties": { "ID": 8, "NAME": "Bean Around The World", "LATITUDE": 48.4292, "LONGITUDE": -123.368, "REVENUE": 96352, "CUSTOMERS": 637, "DONUTS_SOLD": 355, "CHAIN": false, "CHAIN_NAME": "OTHER", "DISTANCE(M)": 422.1, "DRIVE_TIME(MINS)": 2, "RATING": 3, "PIN": "/coffeepin.svg" }, "geometry": { "type": "Point", "coordinates": [ -123.368, 48.4292 ] } },
{ "type": "Feature", "properties": { "ID": 37, "NAME": "Bean Bandits Coffee", "LATITUDE": 48.4236, "LONGITUDE": -123.365, "REVENUE": 99663, "CUSTOMERS": 622, "DONUTS_SOLD": 356, "CHAIN": false, "CHAIN_NAME": "OTHER", "DISTANCE(M)": 409.3, "DRIVE_TIME(MINS)": 2, "RATING": 2, "PIN": "/coffeepin.svg" }, "geometry": { "type": "Point", "coordinates": [ -123.365, 48.4236 ] } },
{ "type": "Feature", "properties": { "ID": 19, "NAME": "Blenz Coffee", "LATITUDE": 48.424, "LONGITUDE": -123.365, "REVENUE": 82296, "CUSTOMERS": 646, "DONUTS_SOLD": 357, "CHAIN": false, "CHAIN_NAME": "OTHER", "DISTANCE(M)": 387.3, "DRIVE_TIME(MINS)": 2, "RATING": 3, "PIN": "/coffeepin.svg" }, "geometry": { "type": "Point", "coordinates": [ -123.365, 48.424 ] } },
{ "type": "Feature", "properties": { "ID": 28, "NAME": "Blue Fox Cafe", "LATITUDE": 48.4236, "LONGITUDE": -123.359, "REVENUE": 98319, "CUSTOMERS": 643, "DONUTS_SOLD": 354, "CHAIN": false, "CHAIN_NAME": "OTHER", "DISTANCE(M)": 819.6, "DRIVE_TIME(MINS)": 2, "RATING": 2, "PIN": "/coffeepin.svg" }, "geometry": { "type": "Point", "coordinates": [ -123.359, 48.4236 ] } },
{ "type": "Feature", "properties": { "ID": 38, "NAME": "Board with Friends Cafe", "LATITUDE": 48.427, "LONGITUDE": -123.364, "REVENUE": 83664, "CUSTOMERS": 647, "DONUTS_SOLD": 353, "CHAIN": false, "CHAIN_NAME": "OTHER", "DISTANCE(M)": 448.8, "DRIVE_TIME(MINS)": 2, "RATING": 2, "PIN": "/coffeepin.svg" }, "geometry": { "type": "Point", "coordinates": [ -123.364, 48.427 ] } },
{ "type": "Feature", "properties": { "ID": 26, "NAME": "Capital City Café", "LATITUDE": 48.4208, "LONGITUDE": -123.366, "REVENUE": 99936, "CUSTOMERS": 650, "DONUTS_SOLD": 357, "CHAIN": false, "CHAIN_NAME": "OTHER", "DISTANCE(M)": 596.0, "DRIVE_TIME(MINS)": 2, "RATING": 4, "PIN": "/coffeepin.svg" }, "geometry": { "type": "Point", "coordinates": [ -123.366, 48.4208 ] } },
{ "type": "Feature", "properties": { "ID": 13, "NAME": "Cascadia", "LATITUDE": 48.4306, "LONGITUDE": -123.367, "REVENUE": 85884, "CUSTOMERS": 656, "DONUTS_SOLD": 359, "CHAIN": false, "CHAIN_NAME": "OTHER", "DISTANCE(M)": 593.2, "DRIVE_TIME(MINS)": 3, "RATING": 4, "PIN": "/coffeepin.svg" }, "geometry": { "type": "Point", "coordinates": [ -123.367, 48.4306 ] } },
{ "type": "Feature", "properties": { "ID": 6, "NAME": "Cat's Coffee & Cake", "LATITUDE": 48.4258, "LONGITUDE": -123.365, "REVENUE": 88453, "CUSTOMERS": 619, "DONUTS_SOLD": 360, "CHAIN": false, "CHAIN_NAME": "OTHER", "DISTANCE(M)": 346.7, "DRIVE_TIME(MINS)": 2, "RATING": 3, "PIN": "/coffeepin.svg" }, "geometry": { "type": "Point", "coordinates": [ -123.365, 48.4258 ] } },
{ "type": "Feature", "properties": { "ID": 5, "NAME": "Colonial Cafe", "LATITUDE": 48.4154, "LONGITUDE": -123.369, "REVENUE": 99258, "CUSTOMERS": 659, "DONUTS_SOLD": 341, "CHAIN": false, "CHAIN_NAME": "OTHER", "DISTANCE(M)": 1132.0, "DRIVE_TIME(MINS)": 5, "RATING": 2, "PIN": "/coffeepin.svg" }, "geometry": { "type": "Point", "coordinates": [ -123.369, 48.4154 ] } },
{ "type": "Feature", "properties": { "ID": 40, "NAME": "Courtyard Café", "LATITUDE": 48.4209, "LONGITUDE": -123.373, "REVENUE": 87272, "CUSTOMERS": 673, "DONUTS_SOLD": 340, "CHAIN": false, "CHAIN_NAME": "OTHER", "DISTANCE(M)": 574.8, "DRIVE_TIME(MINS)": 5, "RATING": 1, "PIN": "/coffeepin.svg" }, "geometry": { "type": "Point", "coordinates": [ -123.373, 48.4209 ] } },
{ "type": "Feature", "properties": { "ID": 41, "NAME": "Deer & Dough Bakery Cafe", "LATITUDE": 48.4295, "LONGITUDE": -123.364, "REVENUE": 88412, "CUSTOMERS": 679, "DONUTS_SOLD": 359, "CHAIN": false, "CHAIN_NAME": "OTHER", "DISTANCE(M)": 605.9, "DRIVE_TIME(MINS)": 3, "RATING": 5, "PIN": "/coffeepin.svg" }, "geometry": { "type": "Point", "coordinates": [ -123.364, 48.4295 ] } },
{ "type": "Feature", "properties": { "ID": 30, "NAME": "Empire Donuts", "LATITUDE": 48.4254, "LONGITUDE": -123.364, "REVENUE": 83905, "CUSTOMERS": 669, "DONUTS_SOLD": 344, "CHAIN": false, "CHAIN_NAME": "OTHER", "DISTANCE(M)": 420.2, "DRIVE_TIME(MINS)": 2, "RATING": 5, "PIN": "/coffeepin.svg" }, "geometry": { "type": "Point", "coordinates": [ -123.364, 48.4254 ] } },
{ "type": "Feature", "properties": { "ID": 39, "NAME": "Flourish BeauTea", "LATITUDE": 48.4246, "LONGITUDE": -123.366, "REVENUE": 96571, "CUSTOMERS": 659, "DONUTS_SOLD": 343, "CHAIN": false, "CHAIN_NAME": "OTHER", "DISTANCE(M)": 292.4, "DRIVE_TIME(MINS)": 2, "RATING": 5, "PIN": "/coffeepin.svg" }, "geometry": { "type": "Point", "coordinates": [ -123.366, 48.4246 ] } },
{ "type": "Feature", "properties": { "ID": 15, "NAME": "Good Earth", "LATITUDE": 48.425, "LONGITUDE": -123.367, "REVENUE": 84296, "CUSTOMERS": 626, "DONUTS_SOLD": 348, "CHAIN": false, "CHAIN_NAME": "OTHER", "DISTANCE(M)": 207.6, "DRIVE_TIME(MINS)": 2, "RATING": 5, "PIN": "/coffeepin.svg" }, "geometry": { "type": "Point", "coordinates": [ -123.367, 48.425 ] } },
{ "type": "Feature", "properties": { "ID": 35, "NAME": "Hey Happy", "LATITUDE": 48.4278, "LONGITUDE": -123.369, "REVENUE": 93104, "CUSTOMERS": 691, "DONUTS_SOLD": 341, "CHAIN": false, "CHAIN_NAME": "OTHER", "DISTANCE(M)": 252.9, "DRIVE_TIME(MINS)": 2, "RATING": 1, "PIN": "/coffeepin.svg" }, "geometry": { "type": "Point", "coordinates": [ -123.369, 48.4278 ] } },
{ "type": "Feature", "properties": { "ID": 46, "NAME": "Interactivity Board Game Cafe", "LATITUDE": 48.426, "LONGITUDE": -123.364, "REVENUE": 88211, "CUSTOMERS": 613, "DONUTS_SOLD": 353, "CHAIN": false, "CHAIN_NAME": "OTHER", "DISTANCE(M)": 422.4, "DRIVE_TIME(MINS)": 2, "RATING": 2, "PIN": "/coffeepin.svg" }, "geometry": { "type": "Point", "coordinates": [ -123.364, 48.426 ] } },
{ "type": "Feature", "properties": { "ID": 21, "NAME": "Just Matcha", "LATITUDE": 48.4286, "LONGITUDE": -123.368, "REVENUE": 92219, "CUSTOMERS": 612, "DONUTS_SOLD": 350, "CHAIN": false, "CHAIN_NAME": "OTHER", "DISTANCE(M)": 358.9, "DRIVE_TIME(MINS)": 2, "RATING": 1, "PIN": "/coffeepin.svg" }, "geometry": { "type": "Point", "coordinates": [ -123.368, 48.4286 ] } },
{ "type": "Feature", "properties": { "ID": 18, "NAME": "Milano", "LATITUDE": 48.4234, "LONGITUDE": -123.368, "REVENUE": 81608, "CUSTOMERS": 690, "DONUTS_SOLD": 349, "CHAIN": false, "CHAIN_NAME": "OTHER", "DISTANCE(M)": 271.2, "DRIVE_TIME(MINS)": 2, "RATING": 1, "PIN": "/coffeepin.svg" }, "geometry": { "type": "Point", "coordinates": [ -123.368, 48.4234 ] } },
{ "type": "Feature", "properties": { "ID": 10, "NAME": "Murchie's", "LATITUDE": 48.4253, "LONGITUDE": -123.368, "REVENUE": 93377, "CUSTOMERS": 629, "DONUTS_SOLD": 353, "CHAIN": false, "CHAIN_NAME": "OTHER", "DISTANCE(M)": 127.3, "DRIVE_TIME(MINS)": 2, "RATING": 5, "PIN": "/coffeepin.svg" }, "geometry": { "type": "Point", "coordinates": [ -123.368, 48.4253 ] } },
{ "type": "Feature", "properties": { "ID": 27, "NAME": "Nourish Kitchen & Cafe", "LATITUDE": 48.4217, "LONGITUDE": -123.377, "REVENUE": 81783, "CUSTOMERS": 645, "DONUTS_SOLD": 344, "CHAIN": false, "CHAIN_NAME": "OTHER", "DISTANCE(M)": 692.4, "DRIVE_TIME(MINS)": 5, "RATING": 3, "PIN": "/coffeepin.svg" }, "geometry": { "type": "Point", "coordinates": [ -123.377, 48.4217 ] } },
{ "type": "Feature", "properties": { "ID": 42, "NAME": "Picnic Too", "LATITUDE": 48.4235, "LONGITUDE": -123.356, "REVENUE": 95064, "CUSTOMERS": 699, "DONUTS_SOLD": 356, "CHAIN": false, "CHAIN_NAME": "OTHER", "DISTANCE(M)": 1037.7, "DRIVE_TIME(MINS)": 3, "RATING": 4, "PIN": "/coffeepin.svg" }, "geometry": { "type": "Point", "coordinates": [ -123.356, 48.4235 ] } },
{ "type": "Feature", "properties": { "ID": 22, "NAME": "QV Cafe", "LATITUDE": 48.4295, "LONGITUDE": -123.367, "REVENUE": 95688, "CUSTOMERS": 641, "DONUTS_SOLD": 349, "CHAIN": false, "CHAIN_NAME": "OTHER", "DISTANCE(M)": 479.6, "DRIVE_TIME(MINS)": 2, "RATING": 1, "PIN": "/coffeepin.svg" }, "geometry": { "type": "Point", "coordinates": [ -123.367, 48.4295 ] } },
{ "type": "Feature", "properties": { "ID": 2, "NAME": "Serious Coffee", "LATITUDE": 48.4266, "LONGITUDE": -123.366, "REVENUE": 85070, "CUSTOMERS": 605, "DONUTS_SOLD": 357, "CHAIN": false, "CHAIN_NAME": "OTHER", "DISTANCE(M)": 294.9, "DRIVE_TIME(MINS)": 2, "RATING": 3, "PIN": "/coffeepin.svg" }, "geometry": { "type": "Point", "coordinates": [ -123.366, 48.4266 ] } },
{ "type": "Feature", "properties": { "ID": 24, "NAME": "Shanzee's Biscuit Café", "LATITUDE": 48.4284, "LONGITUDE": -123.368, "REVENUE": 84369, "CUSTOMERS": 685, "DONUTS_SOLD": 357, "CHAIN": false, "CHAIN_NAME": "OTHER", "DISTANCE(M)": 338.1, "DRIVE_TIME(MINS)": 2, "RATING": 2, "PIN": "/coffeepin.svg" }, "geometry": { "type": "Point", "coordinates": [ -123.368, 48.4284 ] } },
{ "type": "Feature", "properties": { "ID": 32, "NAME": "Sounds Like Coffee", "LATITUDE": 48.4239, "LONGITUDE": -123.367, "REVENUE": 81704, "CUSTOMERS": 648, "DONUTS_SOLD": 351, "CHAIN": false, "CHAIN_NAME": "OTHER", "DISTANCE(M)": 271.3, "DRIVE_TIME(MINS)": 2, "RATING": 4, "PIN": "/coffeepin.svg" }, "geometry": { "type": "Point", "coordinates": [ -123.367, 48.4239 ] } },
{ "type": "Feature", "properties": { "ID": 7, "NAME": "Soupa Cafe", "LATITUDE": 48.4255, "LONGITUDE": -123.364, "REVENUE": 83646, "CUSTOMERS": 639, "DONUTS_SOLD": 341, "CHAIN": false, "CHAIN_NAME": "OTHER", "DISTANCE(M)": 419.8, "DRIVE_TIME(MINS)": 2, "RATING": 4, "PIN": "/coffeepin.svg" }, "geometry": { "type": "Point", "coordinates": [ -123.364, 48.4255 ] } },
{ "type": "Feature", "properties": { "ID": 25, "NAME": "Tea at the Empress", "LATITUDE": 48.4216, "LONGITUDE": -123.368, "REVENUE": 80718, "CUSTOMERS": 608, "DONUTS_SOLD": 355, "CHAIN": false, "CHAIN_NAME": "OTHER", "DISTANCE(M)": 458.5, "DRIVE_TIME(MINS)": 2, "RATING": 4, "PIN": "/coffeepin.svg" }, "geometry": { "type": "Point", "coordinates": [ -123.368, 48.4216 ] } },
{ "type": "Feature", "properties": { "ID": 20, "NAME": "Union Pacific Coffee", "LATITUDE": 48.4301, "LONGITUDE": -123.368, "REVENUE": 94229, "CUSTOMERS": 623, "DONUTS_SOLD": 358, "CHAIN": false, "CHAIN_NAME": "OTHER", "DISTANCE(M)": 518.7, "DRIVE_TIME(MINS)": 2, "RATING": 5, "PIN": "/coffeepin.svg" }, "geometry": { "type": "Point", "coordinates": [ -123.368, 48.4301 ] } },
{ "type": "Feature", "properties": { "ID": 43, "NAME": "Wind Cries Mary", "LATITUDE": 48.4257, "LONGITUDE": -123.369, "REVENUE": 84175, "CUSTOMERS": 602, "DONUTS_SOLD": 348, "CHAIN": false, "CHAIN_NAME": "OTHER", "DISTANCE(M)": 51.7, "DRIVE_TIME(MINS)": 2, "RATING": 5, "PIN": "/coffeepin.svg" }, "geometry": { "type": "Point", "coordinates": [ -123.369, 48.4257 ] } },
{ "type": "Feature", "properties": { "ID": 31, "NAME": "Xing Fu Tang", "LATITUDE": 48.4243, "LONGITUDE": -123.367, "REVENUE": 88190, "CUSTOMERS": 693, "DONUTS_SOLD": 357, "CHAIN": false, "CHAIN_NAME": "OTHER", "DISTANCE(M)": 243.0, "DRIVE_TIME(MINS)": 2, "RATING": 2, "PIN": "/coffeepin.svg" }, "geometry": { "type": "Point", "coordinates": [ -123.367, 48.4243 ] } },
{ "type": "Feature", "properties": { "ID": 9, "NAME": "Discovery Coffee", "LATITUDE": 48.432, "LONGITUDE": -123.365, "REVENUE": 88677, "CUSTOMERS": 672, "DONUTS_SOLD": 345, "CHAIN": true, "CHAIN_NAME": "Discovery Coffee", "DISTANCE(M)": 794.2, "DRIVE_TIME(MINS)": 3, "RATING": 2, "PIN": "/coffeepin.svg" }, "geometry": { "type": "Point", "coordinates": [ -123.365, 48.432 ] } },
{ "type": "Feature", "properties": { "ID": 29, "NAME": "Discovery Coffee", "LATITUDE": 48.4236, "LONGITUDE": -123.362, "REVENUE": 83829, "CUSTOMERS": 611, "DONUTS_SOLD": 340, "CHAIN": true, "CHAIN_NAME": "Discovery Coffee", "DISTANCE(M)": 608.6, "DRIVE_TIME(MINS)": 2, "RATING": 1, "PIN": "/coffeepin.svg" }, "geometry": { "type": "Point", "coordinates": [ -123.362, 48.4236 ] } },
{ "type": "Feature", "properties": { "ID": 4, "NAME": "Habit Coffee", "LATITUDE": 48.4262, "LONGITUDE": -123.362, "REVENUE": 97748, "CUSTOMERS": 678, "DONUTS_SOLD": 342, "CHAIN": true, "CHAIN_NAME": "Habit Coffee", "DISTANCE(M)": 572.1, "DRIVE_TIME(MINS)": 2, "RATING": 3, "PIN": "/coffeepin.svg" }, "geometry": { "type": "Point", "coordinates": [ -123.362, 48.4262 ] } },
{ "type": "Feature", "properties": { "ID": 34, "NAME": "Habit Coffee", "LATITUDE": 48.4286, "LONGITUDE": -123.368, "REVENUE": 92869, "CUSTOMERS": 604, "DONUTS_SOLD": 351, "CHAIN": true, "CHAIN_NAME": "Habit Coffee", "DISTANCE(M)": 358.9, "DRIVE_TIME(MINS)": 2, "RATING": 2, "PIN": "/coffeepin.svg" }, "geometry": { "type": "Point", "coordinates": [ -123.368, 48.4286 ] } },
{ "type": "Feature", "properties": { "ID": 16, "NAME": "Macchiato Caffe", "LATITUDE": 48.4271, "LONGITUDE": -123.362, "REVENUE": 91652, "CUSTOMERS": 621, "DONUTS_SOLD": 360, "CHAIN": true, "CHAIN_NAME": "Macchiato Caffe", "DISTANCE(M)": 592.7, "DRIVE_TIME(MINS)": 2, "RATING": 1, "PIN": "/coffeepin.svg" }, "geometry": { "type": "Point", "coordinates": [ -123.362, 48.4271 ] } },
{ "type": "Feature", "properties": { "ID": 17, "NAME": "Macchiato Caffe", "LATITUDE": 48.4243, "LONGITUDE": -123.367, "REVENUE": 92189, "CUSTOMERS": 688, "DONUTS_SOLD": 353, "CHAIN": true, "CHAIN_NAME": "Macchiato Caffe", "DISTANCE(M)": 243.0, "DRIVE_TIME(MINS)": 2, "RATING": 3, "PIN": "/coffeepin.svg" }, "geometry": { "type": "Point", "coordinates": [ -123.367, 48.4243 ] } },
{ "type": "Feature", "properties": { "ID": 44, "NAME": "Saint Cecelia", "LATITUDE": 48.4267, "LONGITUDE": -123.369, "REVENUE": 80333, "CUSTOMERS": 665, "DONUTS_SOLD": 343, "CHAIN": true, "CHAIN_NAME": "Saint Cecelia", "DISTANCE(M)": 135.1, "DRIVE_TIME(MINS)": 2, "RATING": 2, "PIN": "/coffeepin.svg" }, "geometry": { "type": "Point", "coordinates": [ -123.369, 48.4267 ] } },
{ "type": "Feature", "properties": { "ID": 45, "NAME": "Saint Cecelia", "LATITUDE": 48.4266, "LONGITUDE": -123.369, "REVENUE": 82843, "CUSTOMERS": 691, "DONUTS_SOLD": 352, "CHAIN": true, "CHAIN_NAME": "Saint Cecelia", "DISTANCE(M)": 124.8, "DRIVE_TIME(MINS)": 2, "RATING": 4, "PIN": "/coffeepin.svg" }, "geometry": { "type": "Point", "coordinates": [ -123.369, 48.4266 ] } },
{ "type": "Feature", "properties": { "ID": 23, "NAME": "Starbucks", "LATITUDE": 48.421, "LONGITUDE": -123.371, "REVENUE": 99611, "CUSTOMERS": 618, "DONUTS_SOLD": 341, "CHAIN": true, "CHAIN_NAME": "Starbucks", "DISTANCE(M)": 517.6, "DRIVE_TIME(MINS)": 3, "RATING": 2, "PIN": "/starbucks.svg" }, "geometry": { "type": "Point", "coordinates": [ -123.371, 48.421 ] } },
{ "type": "Feature", "properties": { "ID": 3, "NAME": "Starbucks", "LATITUDE": 48.4157, "LONGITUDE": -123.375, "REVENUE": 96676, "CUSTOMERS": 684, "DONUTS_SOLD": 340, "CHAIN": true, "CHAIN_NAME": "Starbucks", "DISTANCE(M)": 1166.3, "DRIVE_TIME(MINS)": 5, "RATING": 4, "PIN": "/starbucks.svg" }, "geometry": { "type": "Point", "coordinates": [ -123.375, 48.4157 ] } },
{ "type": "Feature", "properties": { "ID": 11, "NAME": "Starbucks", "LATITUDE": 48.4267, "LONGITUDE": -123.367, "REVENUE": 85797, "CUSTOMERS": 628, "DONUTS_SOLD": 359, "CHAIN": true, "CHAIN_NAME": "Starbucks", "DISTANCE(M)": 234.2, "DRIVE_TIME(MINS)": 2, "RATING": 5, "PIN": "/starbucks.svg" }, "geometry": { "type": "Point", "coordinates": [ -123.367, 48.4267 ] } },
{ "type": "Feature", "properties": { "ID": 12, "NAME": "Starbucks", "LATITUDE": 48.4292, "LONGITUDE": -123.367, "REVENUE": 84646, "CUSTOMERS": 604, "DONUTS_SOLD": 360, "CHAIN": true, "CHAIN_NAME": "Starbucks", "DISTANCE(M)": 449.4, "DRIVE_TIME(MINS)": 2, "RATING": 4, "PIN": "/starbucks.svg" }, "geometry": { "type": "Point", "coordinates": [ -123.367, 48.4292 ] } },
{ "type": "Feature", "properties": { "ID": 33, "NAME": "Starbucks", "LATITUDE": 48.4233, "LONGITUDE": -123.369, "REVENUE": 90489, "CUSTOMERS": 648, "DONUTS_SOLD": 357, "CHAIN": true, "CHAIN_NAME": "Starbucks", "DISTANCE(M)": 257.3, "DRIVE_TIME(MINS)": 2, "RATING": 1, "PIN": "/starbucks.svg" }, "geometry": { "type": "Point", "coordinates": [ -123.369, 48.4233 ] } },
{ "type": "Feature", "properties": { "ID": 14, "NAME": "Tim Hortons", "LATITUDE": 48.4273, "LONGITUDE": -123.362, "REVENUE": 89135, "CUSTOMERS": 700, "DONUTS_SOLD": 347, "CHAIN": true, "CHAIN_NAME": "Tim Hortons", "DISTANCE(M)": 599.4, "DRIVE_TIME(MINS)": 2, "RATING": 4, "PIN": "/timhortons.svg" }, "geometry": { "type": "Point", "coordinates": [ -123.362, 48.4273 ] } },
{ "type": "Feature", "properties": { "ID": 36, "NAME": "Tim Hortons", "LATITUDE": 48.4246, "LONGITUDE": -123.364, "REVENUE": 84752, "CUSTOMERS": 667, "DONUTS_SOLD": 340, "CHAIN": true, "CHAIN_NAME": "Tim Hortons", "DISTANCE(M)": 433.4, "DRIVE_TIME(MINS)": 2, "RATING": 5, "PIN": "/timhortons.svg" }, "geometry": { "type": "Point", "coordinates": [ -123.364, 48.4246 ] } }
]
}
