{
"type": "FeatureCollection",
"name": "coffee-locations",
"crs": { "type": "name", "properties": { "name": "urn:ogc:def:crs:EPSG::4267" } },
"features": [
{ "type": "Feature", "properties": { "ID": 1, "NAME": "Basic Cafe", "LATITUDE": 48.4253, "LONGITUDE": -123.357, "PIN": "/coffeepin.svg", "REVENUE": 96749, "CUSTOMERS": 646, "DONUTS_SOLD": 354, "CHAIN": false }, "geometry": { "type": "Point", "coordinates": [ -123.357, 48.4253 ] } },
{ "type": "Feature", "properties": { "ID": 2, "NAME": "Serious Coffee", "LATITUDE": 48.4266, "LONGITUDE": -123.366, "PIN": "/coffeepin.svg", "REVENUE": 86131, "CUSTOMERS": 621, "DONUTS_SOLD": 353, "CHAIN": false }, "geometry": { "type": "Point", "coordinates": [ -123.366, 48.4266 ] } },
{ "type": "Feature", "properties": { "ID": 3, "NAME": "Starbucks", "LATITUDE": 48.4157, "LONGITUDE": -123.375, "PIN": "/coffeepin.svg", "REVENUE": 94643, "CUSTOMERS": 627, "DONUTS_SOLD": 352, "CHAIN": true }, "geometry": { "type": "Point", "coordinates": [ -123.375, 48.4157 ] } },
{ "type": "Feature", "properties": { "ID": 4, "NAME": "Habit Coffee", "LATITUDE": 48.4262, "LONGITUDE": -123.362, "PIN": "/starbucks.svg", "REVENUE": 82650, "CUSTOMERS": 663, "DONUTS_SOLD": 354, "CHAIN": true }, "geometry": { "type": "Point", "coordinates": [ -123.362, 48.4262 ] } },
{ "type": "Feature", "properties": { "ID": 5, "NAME": "Colonial Cafe", "LATITUDE": 48.4154, "LONGITUDE": -123.369, "PIN": "/coffeepin.svg", "REVENUE": 88442, "CUSTOMERS": 644, "DONUTS_SOLD": 341, "CHAIN": false }, "geometry": { "type": "Point", "coordinates": [ -123.369, 48.4154 ] } },
{ "type": "Feature", "properties": { "ID": 6, "NAME": "Cat's Coffee & Cake", "LATITUDE": 48.4258, "LONGITUDE": -123.365, "PIN": "/coffeepin.svg", "REVENUE": 81721, "CUSTOMERS": 661, "DONUTS_SOLD": 360, "CHAIN": false }, "geometry": { "type": "Point", "coordinates": [ -123.365, 48.4258 ] } },
{ "type": "Feature", "properties": { "ID": 7, "NAME": "Soupa Cafe", "LATITUDE": 48.4255, "LONGITUDE": -123.364, "PIN": "/coffeepin.svg", "REVENUE": 91956, "CUSTOMERS": 634, "DONUTS_SOLD": 359, "CHAIN": false }, "geometry": { "type": "Point", "coordinates": [ -123.364, 48.4255 ] } },
{ "type": "Feature", "properties": { "ID": 8, "NAME": "Bean Around The World", "LATITUDE": 48.4292, "LONGITUDE": -123.368, "PIN": "/coffeepin.svg", "REVENUE": 97897, "CUSTOMERS": 654, "DONUTS_SOLD": 344, "CHAIN": false }, "geometry": { "type": "Point", "coordinates": [ -123.368, 48.4292 ] } },
{ "type": "Feature", "properties": { "ID": 9, "NAME": "Discovery Coffee", "LATITUDE": 48.432, "LONGITUDE": -123.365, "PIN": "/coffeepin.svg", "REVENUE": 91028, "CUSTOMERS": 602, "DONUTS_SOLD": 352, "CHAIN": true }, "geometry": { "type": "Point", "coordinates": [ -123.365, 48.432 ] } },
{ "type": "Feature", "properties": { "ID": 10, "NAME": "Murchie's", "LATITUDE": 48.4253, "LONGITUDE": -123.368, "PIN": "/coffeepin.svg", "REVENUE": 84455, "CUSTOMERS": 677, "DONUTS_SOLD": 348, "CHAIN": false }, "geometry": { "type": "Point", "coordinates": [ -123.368, 48.4253 ] } },
{ "type": "Feature", "properties": { "ID": 11, "NAME": "Starbucks", "LATITUDE": 48.4267, "LONGITUDE": -123.367, "PIN": "/coffeepin.svg", "REVENUE": 84562, "CUSTOMERS": 690, "DONUTS_SOLD": 343, "CHAIN": true }, "geometry": { "type": "Point", "coordinates": [ -123.367, 48.4267 ] } },
{ "type": "Feature", "properties": { "ID": 12, "NAME": "Starbucks", "LATITUDE": 48.4292, "LONGITUDE": -123.367, "PIN": "/starbucks.svg", "REVENUE": 99914, "CUSTOMERS": 684, "DONUTS_SOLD": 359, "CHAIN": true }, "geometry": { "type": "Point", "coordinates": [ -123.367, 48.4292 ] } },
{ "type": "Feature", "properties": { "ID": 13, "NAME": "Cascadia", "LATITUDE": 48.4306, "LONGITUDE": -123.367, "PIN": "/starbucks.svg", "REVENUE": 81423, "CUSTOMERS": 657, "DONUTS_SOLD": 347, "CHAIN": false }, "geometry": { "type": "Point", "coordinates": [ -123.367, 48.4306 ] } },
{ "type": "Feature", "properties": { "ID": 14, "NAME": "Tim Hortons", "LATITUDE": 48.4273, "LONGITUDE": -123.362, "PIN": "/coffeepin.svg", "REVENUE": 94547, "CUSTOMERS": 626, "DONUTS_SOLD": 340, "CHAIN": true }, "geometry": { "type": "Point", "coordinates": [ -123.362, 48.4273 ] } },
{ "type": "Feature", "properties": { "ID": 15, "NAME": "Good Earth", "LATITUDE": 48.425, "LONGITUDE": -123.367, "PIN": "/timhortons.svg", "REVENUE": 93193, "CUSTOMERS": 601, "DONUTS_SOLD": 356, "CHAIN": false }, "geometry": { "type": "Point", "coordinates": [ -123.367, 48.425 ] } },
{ "type": "Feature", "properties": { "ID": 16, "NAME": "Macchiato Caffe", "LATITUDE": 48.4271, "LONGITUDE": -123.362, "PIN": "/coffeepin.svg", "REVENUE": 96234, "CUSTOMERS": 609, "DONUTS_SOLD": 349, "CHAIN": true }, "geometry": { "type": "Point", "coordinates": [ -123.362, 48.4271 ] } },
{ "type": "Feature", "properties": { "ID": 17, "NAME": "Macchiato Caffe", "LATITUDE": 48.4243, "LONGITUDE": -123.367, "PIN": "/coffeepin.svg", "REVENUE": 98621, "CUSTOMERS": 696, "DONUTS_SOLD": 349, "CHAIN": true }, "geometry": { "type": "Point", "coordinates": [ -123.367, 48.4243 ] } },
{ "type": "Feature", "properties": { "ID": 18, "NAME": "Milano", "LATITUDE": 48.4234, "LONGITUDE": -123.368, "PIN": "/coffeepin.svg", "REVENUE": 95052, "CUSTOMERS": 697, "DONUTS_SOLD": 358, "CHAIN": false }, "geometry": { "type": "Point", "coordinates": [ -123.368, 48.4234 ] } },
{ "type": "Feature", "properties": { "ID": 19, "NAME": "Blenz Coffee", "LATITUDE": 48.424, "LONGITUDE": -123.365, "PIN": "/coffeepin.svg", "REVENUE": 97736, "CUSTOMERS": 667, "DONUTS_SOLD": 346, "CHAIN": false }, "geometry": { "type": "Point", "coordinates": [ -123.365, 48.424 ] } },
{ "type": "Feature", "properties": { "ID": 20, "NAME": "Union Pacific Coffee", "LATITUDE": 48.4301, "LONGITUDE": -123.368, "PIN": "/coffeepin.svg", "REVENUE": 99025, "CUSTOMERS": 616, "DONUTS_SOLD": 355, "CHAIN": false }, "geometry": { "type": "Point", "coordinates": [ -123.368, 48.4301 ] } },
{ "type": "Feature", "properties": { "ID": 21, "NAME": "Just Matcha", "LATITUDE": 48.4286, "LONGITUDE": -123.368, "PIN": "/coffeepin.svg", "REVENUE": 95703, "CUSTOMERS": 635, "DONUTS_SOLD": 340, "CHAIN": false }, "geometry": { "type": "Point", "coordinates": [ -123.368, 48.4286 ] } },
{ "type": "Feature", "properties": { "ID": 22, "NAME": "QV Cafe", "LATITUDE": 48.4295, "LONGITUDE": -123.367, "PIN": "/coffeepin.svg", "REVENUE": 86991, "CUSTOMERS": 636, "DONUTS_SOLD": 350, "CHAIN": false }, "geometry": { "type": "Point", "coordinates": [ -123.367, 48.4295 ] } },
{ "type": "Feature", "properties": { "ID": 23, "NAME": "Starbucks", "LATITUDE": 48.421, "LONGITUDE": -123.371, "PIN": "/coffeepin.svg", "REVENUE": 94908, "CUSTOMERS": 656, "DONUTS_SOLD": 344, "CHAIN": true }, "geometry": { "type": "Point", "coordinates": [ -123.371, 48.421 ] } },
{ "type": "Feature", "properties": { "ID": 24, "NAME": "Shanzee's Biscuit Café", "LATITUDE": 48.4284, "LONGITUDE": -123.368, "PIN": "/starbucks.svg", "REVENUE": 80526, "CUSTOMERS": 669, "DONUTS_SOLD": 352, "CHAIN": false }, "geometry": { "type": "Point", "coordinates": [ -123.368, 48.4284 ] } },
{ "type": "Feature", "properties": { "ID": 25, "NAME": "Tea at the Empress", "LATITUDE": 48.4216, "LONGITUDE": -123.368, "PIN": "/coffeepin.svg", "REVENUE": 86989, "CUSTOMERS": 665, "DONUTS_SOLD": 360, "CHAIN": false }, "geometry": { "type": "Point", "coordinates": [ -123.368, 48.4216 ] } },
{ "type": "Feature", "properties": { "ID": 26, "NAME": "Capital City Café", "LATITUDE": 48.4208, "LONGITUDE": -123.366, "PIN": "/coffeepin.svg", "REVENUE": 84570, "CUSTOMERS": 636, "DONUTS_SOLD": 359, "CHAIN": false }, "geometry": { "type": "Point", "coordinates": [ -123.366, 48.4208 ] } },
{ "type": "Feature", "properties": { "ID": 27, "NAME": "Nourish Kitchen & Cafe", "LATITUDE": 48.4217, "LONGITUDE": -123.377, "PIN": "/coffeepin.svg", "REVENUE": 90504, "CUSTOMERS": 646, "DONUTS_SOLD": 352, "CHAIN": false }, "geometry": { "type": "Point", "coordinates": [ -123.377, 48.4217 ] } },
{ "type": "Feature", "properties": { "ID": 28, "NAME": "Blue Fox Cafe", "LATITUDE": 48.4236, "LONGITUDE": -123.359, "PIN": "/coffeepin.svg", "REVENUE": 89156, "CUSTOMERS": 659, "DONUTS_SOLD": 347, "CHAIN": false }, "geometry": { "type": "Point", "coordinates": [ -123.359, 48.4236 ] } },
{ "type": "Feature", "properties": { "ID": 29, "NAME": "Discovery Coffee", "LATITUDE": 48.4236, "LONGITUDE": -123.362, "PIN": "/coffeepin.svg", "REVENUE": 87704, "CUSTOMERS": 601, "DONUTS_SOLD": 351, "CHAIN": true }, "geometry": { "type": "Point", "coordinates": [ -123.362, 48.4236 ] } },
{ "type": "Feature", "properties": { "ID": 30, "NAME": "Empire Donuts", "LATITUDE": 48.4254, "LONGITUDE": -123.364, "PIN": "/coffeepin.svg", "REVENUE": 81189, "CUSTOMERS": 656, "DONUTS_SOLD": 341, "CHAIN": false }, "geometry": { "type": "Point", "coordinates": [ -123.364, 48.4254 ] } },
{ "type": "Feature", "properties": { "ID": 31, "NAME": "Xing Fu Tang", "LATITUDE": 48.4243, "LONGITUDE": -123.367, "PIN": "/coffeepin.svg", "REVENUE": 86508, "CUSTOMERS": 654, "DONUTS_SOLD": 343, "CHAIN": false }, "geometry": { "type": "Point", "coordinates": [ -123.367, 48.4243 ] } },
{ "type": "Feature", "properties": { "ID": 32, "NAME": "Sounds Like Coffee", "LATITUDE": 48.4239, "LONGITUDE": -123.367, "PIN": "/coffeepin.svg", "REVENUE": 91034, "CUSTOMERS": 677, "DONUTS_SOLD": 358, "CHAIN": false }, "geometry": { "type": "Point", "coordinates": [ -123.367, 48.4239 ] } },
{ "type": "Feature", "properties": { "ID": 33, "NAME": "Starbucks", "LATITUDE": 48.4233, "LONGITUDE": -123.369, "PIN": "/coffeepin.svg", "REVENUE": 90495, "CUSTOMERS": 674, "DONUTS_SOLD": 348, "CHAIN": true }, "geometry": { "type": "Point", "coordinates": [ -123.369, 48.4233 ] } },
{ "type": "Feature", "properties": { "ID": 34, "NAME": "Habit Coffee", "LATITUDE": 48.4286, "LONGITUDE": -123.368, "PIN": "/starbucks.svg", "REVENUE": 87625, "CUSTOMERS": 693, "DONUTS_SOLD": 342, "CHAIN": true }, "geometry": { "type": "Point", "coordinates": [ -123.368, 48.4286 ] } },
{ "type": "Feature", "properties": { "ID": 35, "NAME": "Hey Happy", "LATITUDE": 48.4278, "LONGITUDE": -123.369, "PIN": "/coffeepin.svg", "REVENUE": 89495, "CUSTOMERS": 696, "DONUTS_SOLD": 347, "CHAIN": false }, "geometry": { "type": "Point", "coordinates": [ -123.369, 48.4278 ] } },
{ "type": "Feature", "properties": { "ID": 36, "NAME": "Tim Hortons", "LATITUDE": 48.4246, "LONGITUDE": -123.364, "PIN": "/coffeepin.svg", "REVENUE": 91540, "CUSTOMERS": 686, "DONUTS_SOLD": 346, "CHAIN": true }, "geometry": { "type": "Point", "coordinates": [ -123.364, 48.4246 ] } },
{ "type": "Feature", "properties": { "ID": 37, "NAME": "Bean Bandits Coffee", "LATITUDE": 48.4236, "LONGITUDE": -123.365, "PIN": "/timhortons.svg", "REVENUE": 91997, "CUSTOMERS": 680, "DONUTS_SOLD": 343, "CHAIN": false }, "geometry": { "type": "Point", "coordinates": [ -123.365, 48.4236 ] } },
{ "type": "Feature", "properties": { "ID": 38, "NAME": "Board with Friends Cafe", "LATITUDE": 48.427, "LONGITUDE": -123.364, "PIN": "/coffeepin.svg", "REVENUE": 98453, "CUSTOMERS": 632, "DONUTS_SOLD": 351, "CHAIN": false }, "geometry": { "type": "Point", "coordinates": [ -123.364, 48.427 ] } },
{ "type": "Feature", "properties": { "ID": 39, "NAME": "Flourish BeauTea", "LATITUDE": 48.4246, "LONGITUDE": -123.366, "PIN": "/coffeepin.svg", "REVENUE": 96485, "CUSTOMERS": 621, "DONUTS_SOLD": 345, "CHAIN": false }, "geometry": { "type": "Point", "coordinates": [ -123.366, 48.4246 ] } },
{ "type": "Feature", "properties": { "ID": 40, "NAME": "Courtyard Café", "LATITUDE": 48.4209, "LONGITUDE": -123.373, "PIN": "/coffeepin.svg", "REVENUE": 92613, "CUSTOMERS": 628, "DONUTS_SOLD": 348, "CHAIN": false }, "geometry": { "type": "Point", "coordinates": [ -123.373, 48.4209 ] } },
{ "type": "Feature", "properties": { "ID": 41, "NAME": "Deer & Dough Bakery Cafe", "LATITUDE": 48.4295, "LONGITUDE": -123.364, "PIN": "/coffeepin.svg", "REVENUE": 95123, "CUSTOMERS": 639, "DONUTS_SOLD": 354, "CHAIN": false }, "geometry": { "type": "Point", "coordinates": [ -123.364, 48.4295 ] } },
{ "type": "Feature", "properties": { "ID": 42, "NAME": "Picnic Too", "LATITUDE": 48.4235, "LONGITUDE": -123.356, "PIN": "/coffeepin.svg", "REVENUE": 83668, "CUSTOMERS": 634, "DONUTS_SOLD": 349, "CHAIN": false }, "geometry": { "type": "Point", "coordinates": [ -123.356, 48.4235 ] } },
{ "type": "Feature", "properties": { "ID": 43, "NAME": "Wind Cries Mary", "LATITUDE": 48.4257, "LONGITUDE": -123.369, "PIN": "/coffeepin.svg", "REVENUE": 98981, "CUSTOMERS": 635, "DONUTS_SOLD": 358, "CHAIN": false }, "geometry": { "type": "Point", "coordinates": [ -123.369, 48.4257 ] } },
{ "type": "Feature", "properties": { "ID": 44, "NAME": "Saint Cecelia", "LATITUDE": 48.4267, "LONGITUDE": -123.369, "PIN": "/coffeepin.svg", "REVENUE": 82931, "CUSTOMERS": 636, "DONUTS_SOLD": 350, "CHAIN": false }, "geometry": { "type": "Point", "coordinates": [ -123.369, 48.4267 ] } },
{ "type": "Feature", "properties": { "ID": 45, "NAME": "Saint Cecilia Coffee, Ice Cream & Goods", "LATITUDE": 48.4266, "LONGITUDE": -123.369, "PIN": "/coffeepin.svg", "REVENUE": 97652, "CUSTOMERS": 666, "DONUTS_SOLD": 359, "CHAIN": false }, "geometry": { "type": "Point", "coordinates": [ -123.369, 48.4266 ] } },
{ "type": "Feature", "properties": { "ID": 46, "NAME": "Interactivity Board Game Cafe", "LATITUDE": 48.426, "LONGITUDE": -123.364, "PIN": "/coffeepin.svg", "REVENUE": 91627, "CUSTOMERS": 653, "DONUTS_SOLD": 355, "CHAIN": false }, "geometry": { "type": "Point", "coordinates": [ -123.364, 48.426 ] } }
]
}
